{
"type": "FeatureCollection",
"name": "fac_building_point",
"crs": { "type": "name", "properties": { "name": "urn:ogc:def:crs:OGC:1.3:CRS84" } },
"features": [
{ "type": "Feature", "id": 0, "properties": { "name": "オープンラボ", "建物名称": null, "建物用途": null, "構造規模": null, "建築面積": null, "床面積": null, "建物高さ": null, "地盤高": null, "GLを引いた分": null, "_prop_id": "fac_open_labo", "category": "アカデミー施設" }, "geometry": { "type": "Point", "coordinates": [ 136.919451220120948, 35.553369893337134 ] } },
{ "type": "Feature", "id": 1, "properties": { "name": "加工棟", "建物名称": null, "建物用途": null, "構造規模": null, "建築面積": null, "床面積": null, "建物高さ": null, "地盤高": null, "GLを引いた分": null, "_prop_id": "fac_kakoutou", "category": "アカデミー施設" }, "geometry": { "type": "Point", "coordinates": [ 136.919308056362695, 35.553667048448261 ] } },
{ "type": "Feature", "id": 2, "properties": { "name": "製材棟", "建物名称": null, "建物用途": null, "構造規模": null, "建築面積": null, "床面積": null, "建物高さ": null, "地盤高": null, "GLを引いた分": null, "_prop_id": "fac_seizaitou", "category": "アカデミー施設" }, "geometry": { "type": "Point", "coordinates": [ 136.919152257125063, 35.553387339755709 ] } },
{ "type": "Feature", "id": 3, "properties": { "name": "研修棟", "建物名称": null, "建物用途": null, "構造規模": null, "建築面積": null, "床面積": null, "建物高さ": null, "地盤高": null, "GLを引いた分": null, "_prop_id": "fac_kensyutou", "category": "アカデミー施設" }, "geometry": { "type": "Point", "coordinates": [ 136.918921657502665, 35.553772227447602 ] } },
{ "type": "Feature", "id": 4, "properties": { "name": "テクニカルセンターA", "建物名称": "テクニカルセンターＡ", "建物用途": "専修学校　校舎", "構造規模": "木造2F", "建築面積": "509.13", "床面積": "668.71", "建物高さ": "9.72", "地盤高": "-8.00", "GLを引いた分": "9.733", "_prop_id": "fac_tech_a", "category": "アカデミー施設" }, "geometry": { "type": "Point", "coordinates": [ 136.918880495172914, 35.554250781087838 ] } },
{ "type": "Feature", "id": 5, "properties": { "name": "テクニカルセンターB", "建物名称": "テクニカルセンターB", "建物用途": "専修学校　校舎", "構造規模": "木造2F", "建築面積": "358.27", "床面積": "472.43", "建物高さ": "9.81", "地盤高": "-8.00", "GLを引いた分": "9.822", "_prop_id": "fac_tech_b", "category": "アカデミー施設" }, "geometry": { "type": "Point", "coordinates": [ 136.918964474869966, 35.554490148929887 ] } },
{ "type": "Feature", "id": 6, "properties": { "name": "森林総合教育センター(morinos)", "建物名称": "森林総合教育センター・センターハウス", "建物用途": "センターハウス", "構造規模": "木造平屋", "建築面積": "227.5", "床面積": "129.04", "建物高さ": "6.1", "地盤高": "+10.00", "GLを引いた分": "24.112", "_prop_id": "fac_morinos", "category": "アカデミー施設" }, "geometry": { "type": "Point", "coordinates": [ 136.919494578641405, 35.554008589225468 ] } },
{ "type": "Feature", "id": 7, "properties": { "name": "森の情報センター", "建物名称": "森の情報センター", "建物用途": "専修学校　校舎", "構造規模": "木造2F", "建築面積": "610.13", "床面積": "665.83", "建物高さ": "8.59", "地盤高": "+10.00", "GLを引いた分": "26.602", "_prop_id": "fac_information", "category": "アカデミー施設" }, "geometry": { "type": "Point", "coordinates": [ 136.9195666213067, 35.554178526108558 ] } },
{ "type": "Feature", "id": 8, "properties": { "name": "森の工房", "建物名称": "森の工房", "建物用途": "専修学校　校舎", "構造規模": "木造2F", "建築面積": "447.58", "床面積": "492.24", "建物高さ": "8.59", "地盤高": "+10.00", "GLを引いた分": "26.602", "_prop_id": "fac_koubou", "category": "アカデミー施設" }, "geometry": { "type": "Point", "coordinates": [ 136.919892364815894, 35.554096680514384 ] } },
{ "type": "Feature", "id": 9, "properties": { "name": "車庫", "建物名称": "車庫", "建物用途": "車庫", "構造規模": "木造平屋", "建築面積": "147.62", "床面積": "147.62", "建物高さ": "4.96", "地盤高": "-17.00", "GLを引いた分": "-4.028", "_prop_id": "fac_syako", "category": "アカデミー施設" }, "geometry": { "type": "Point", "coordinates": [ 136.919352059308721, 35.555681285899944 ] } },
{ "type": "Feature", "id": 10, "properties": { "name": "森のコテージ", "建物名称": "森のコテージ", "建物用途": "寄宿舎", "構造規模": "木造平屋", "建築面積": "1225.55", "床面積": "599.67", "建物高さ": "3.77", "地盤高": "+4.50", "GLを引いた分": "16.282", "_prop_id": "fac_cottage", "category": "アカデミー施設" }, "geometry": { "type": "Point", "coordinates": [ 136.919007069695851, 35.55491252202723 ] } },
{ "type": "Feature", "id": 11, "properties": { "name": "メディアラボ、フォレストラボ", "建物名称": "マルチメディア実習棟", "建物用途": "専修学校　校舎", "構造規模": "木造2F", "建築面積": "1444.2", "床面積": "1996.15", "建物高さ": "11.29", "地盤高": "-21.80", "GLを引いた分": "-2.498", "_prop_id": "fac_forest_labo", "category": "アカデミー施設" }, "geometry": { "type": "Point", "coordinates": [ 136.918565866815158, 35.555758693365959 ] } },
{ "type": "Feature", "id": 12, "properties": { "name": "ウッドラボ", "建物名称": "アトリエ", "建物用途": "専修学校　校舎", "構造規模": "木造平屋", "建築面積": "1108.48", "床面積": "951.82", "建物高さ": "8.07", "地盤高": "-24.00", "GLを引いた分": "-7.918", "_prop_id": "fac_wood_labo", "category": "アカデミー施設" }, "geometry": { "type": "Point", "coordinates": [ 136.917646220177716, 35.555688932749476 ] } },
{ "type": "Feature", "id": 13, "properties": { "name": "アカデミーセンター", "建物名称": "アカデミーセンター", "建物用途": "専修学校　事務所", "構造規模": "木造2F", "建築面積": "1238.83", "床面積": "1756.63", "建物高さ": "11.55", "地盤高": "-24.90", "GLを引いた分": "-5.338", "_prop_id": "fac_center", "category": "アカデミー施設" }, "geometry": { "type": "Point", "coordinates": [ 136.917792623262017, 35.555336104820199 ] } },
{ "type": "Feature", "id": 14, "properties": { "name": "林業機械学習棟", "建物名称": "高性能林業機械車庫", "建物用途": "車庫", "構造規模": "木造平屋", "建築面積": "230.28", "床面積": "200", "建物高さ": "5.46", "地盤高": "±0", "GLを引いた分": "13.472", "_prop_id": "fac_ringyoukikaitou", "category": "アカデミー施設" }, "geometry": { "type": "Point", "coordinates": [ 136.917921868076604, 35.554004958346418 ] } }
]
}
